{
  "en": {
    "worklogsTitle": "Developers worklogs:",
    "mainDifficultiesTitle": "Main difficulties:",
    "evaluationTitle": "Evaluation:",
    "worklogs": [
      {
        "name": "Uladzimir Kazak",
        "activityList": [
          {
            "hours": "5h",
            "description": "add some details author"
          },
          {
            "hours": "5h",
            "description": "add video and map show"
          },
          {
            "hours": "3h",
            "description": "refactor authors module"
          }
        ]
      },
      {
        "name": "Nikita Moiseichyk",
        "activityList": [
          {
            "hours": "8h",
            "description": "add data JSON authors RUS lang"
          },
          {
            "hours": "4h",
            "description": "add data JSON authors ENG lang"
          },
          {
            "hours": "4h",
            "description": "add data JSON authors BEL lang"
          },
          {
            "hours": "2h",
            "description": "timeline component"
          },
          {
            "hours": "2h",
            "description": "search information how insert video in iframe"
          },
          {
            "hours": "2h",
            "description": "refactor component author list & author info for responsive markup"
          }
          ,
          {
            "hours": "3h",
            "description": "refactoring routing in author list & author info component"
          }
        ]
      },
      {
        "name": "Aliaksandr Babtsou",
        "activityList": [
          {
            "hours": "10m",
            "description": "add routing to list athors"
          },
          {
            "hours": "10m",
            "description": "add service authors and pipe search"
          },
          {
            "hours": "45m",
            "description": "Implementation service Authors"
          },
          {
            "hours": "15m",
            "description": "add component author-item"
          },
          {
            "hours": "10m",
            "description": "component author-item"
          },
          {
            "hours": "30m",
            "description": "Implementation component aothor item"
          },
          {
            "hours": "10m",
            "description": "import material module in share module"
          },
          {
            "hours": "10m",
            "description": "add component panel search"
          },
          {
            "hours": "20m",
            "description": "HTML component panel search"
          },
          {
            "hours": "45m",
            "description": "implement panel search"
          },
          {
            "hours": "30m",
            "description": "implement search City in title biography"
          },
          {
            "hours": "30m",
            "description": "flex 3 rows in list authors"
          },
          {
            "hours": "10m",
            "description": "format pipe date"
          },
          {
            "hours": "10m",
            "description": "send author to autor-info"
          },
          {
            "hours": "60m",
            "description": "interface translation completed"
          },
          {
            "hours": "20m",
            "description": "interface translation BE"
          }
        ]
      },
      {
        "name": "Ulyana Bychkouskaya",
        "activityList": [
          {
            "hours": "3h",
            "description": "add main page"
          },
          {
            "hours": "1h",
            "description": "add service for a random author"
          },
          {
            "hours": "2h",
            "description": "home page translation"
          },
          {
            "hours": "7h",
            "description": "design of the entire portal"
          },
          {
            "hours": "2h",
            "description": "mobile version of the entire portal"
          },
          {
            "hours": "0.5h",
            "description": "json-file for the main page"
          }
        ]
      },
      {
        "name": "Timur Yermakou",
        "activityList": [
          {
            "hours": "5h",
            "description": "add worklog page components and models"
          },
          {
            "hours": "3h",
            "description": "add worklog page service and resolver"
          },
          {
            "hours": "2h",
            "description": "add correct data"
          },
          {
            "hours": "2h",
            "description": "translate data"
          },
          {
            "hours": "2h",
            "description": "bug fixing"
          }
        ]
      },
      {
        "name": "Vlad Drozd",
        "activityList": [
          {
            "hours": "1.5h",
            "description": "Create project, project structure, base interfaces"
          },
          {
            "hours": "2h",
            "description": "Developers page"
          },
          {
            "hours": "1h",
            "description": "Developers service"
          },
          {
            "hours": "1h",
            "description": "Connect all modules, configure routing"
          },
          {
            "hours": "0.5h",
            "description": "Developers translation"
          },
          {
            "hours": "0.5h",
            "description": "Styleguide page"
          },
          {
            "hours": "0.5h",
            "description": "Linter errors fixes"
          },
          {
            "hours": "0.2h",
            "description": "Another small improvements"
          }
        ]
      }
    ],
    "mainDifficulties": [
      "Translation",
      "Merge conflicts",
      "Problems with the pull requests"
    ],
    "evaluation": [
      {
        "scopeTitle": "Min scope - 50",
        "requirementsList": [
          {
            "isDone": "true",
            "description": "10 Main page + page with a list of authors + author's page (only pages with content without widgets)"
          },
          {
            "isDone": "true",
            "description": "10 Page with team members + page with worklog"
          },
          {
            "isDone": "true",
            "description": "10 Page with list of authors contains search widget"
          },
          {
            "isDone": "true",
            "description": "20 Portal has two languages"
          }
        ]
      },
      {
        "scopeTitle": "Normal scope - 140",
        "requirementsList": [
          {
            "isDone": "true",
            "description": "20 Portal has page with styleguide"
          },
          {
            "isDone": "true",
            "description": "10 Mobile version is okey"
          },
          {
            "isDone": "true",
            "description": "10 Ipad/tablet version is okey"
          },
          {
            "isDone": "true",
            "description": "10 Author's page contains timeline"
          },
          {
            "isDone": "true",
            "description": "10 Author's page contains video overlay"
          },
          {
            "isDone": "true",
            "description": "20 Author's page contains photo gallery"
          },
          {
            "isDone": "true",
            "description": "10 Author's page contains map (geowidget)"
          },
          {
            "isDone": "true",
            "description": "from 0 to 20 Design (typography, icons, colors, links + buttons + input, ui components are styled)"
          },
          {
            "isDone": "true",
            "description": "20 Material-ui / bootstrap is used"
          },
          {
            "isDone": "true",
            "description": "10 Portal has third language"
          }
        ]
      },
      {
        "scopeTitle": "Extra scope - 90",
        "requirementsList": [
          {
            "isDone": "true",
            "description": "10 Confidence of the project presentation"
          },
          {
            "isDone": "false",
            "description": "10 Project is made using scully"
          },
          {
            "isDone": "false",
            "description": "10 Contentful / netlify cms / other cms is used for content management"
          },
          {
            "isDone": "true",
            "description": "20 Animations / special effects like paralax"
          },
          {
            "isDone": "true",
            "description": "up to 20 Outstanding design"
          },
          {
            "isDone": "true",
            "description": "20 Storybook/angularplayground/compodoc/other angulaer styleguide/documentation tool usage for the page with styles"
          }
        ]
      }
    ]
  },
  "ru": {
    "worklogsTitle": "Рабочие журналы разработчиков:",
    "mainDifficultiesTitle": "Основные трудности:",
    "evaluationTitle": "Оценка:",
    "worklogs": [
      {
        "name": "Владимир Казак",
        "activityList": [
          {
            "hours": "5ч",
            "description": "добавил некоторые детали автора"
          },
          {
            "hours": "5ч",
            "description": "добавил видео и показал карту"
          },
          {
            "hours": "3ч",
            "description": "переделал модуль авторов"
          }
        ]
      },
      {
        "name": "Никита Мойсейчик",
        "activityList": [
          {
            "hours": "8ч",
            "description": "добавил данные JSON авторов на русском"
          },
          {
            "hours": "4ч",
            "description": "добавил данные JSON авторов на английском"
          },
          {
            "hours": "4ч",
            "description": "добавил данные JSON авторов на беларуском"
          },
          {
            "hours": "2ч",
            "description": "timeline компонент"
          },
          {
            "hours": "2ч",
            "description": "поиск информации как вставить видео в iframe"
          },
          {
            "hours": "2ч",
            "description": "переделал компонент список авторов и информация об авторе для гибкой верстки"
          },
          {
            "hours": "3ч",
            "description": "рефакторинг маршрутизации в списке авторов и компоненте информации об авторе"
          }
        ]
      },
      {
        "name": "Александр Бобцов",
        "activityList": [
          {
            "hours": "10м",
            "description": "добавил маршрутизацию в список авторов"
          },
          {
            "hours": "10м",
            "description": "добавил service для авторов and pipe для поиска"
          },
          {
            "hours": "45м",
            "description": "Реализация service Authors"
          },
          {
            "hours": "15м",
            "description": "добавил компонент author-item"
          },
          {
            "hours": "10м",
            "description": "компонент author-item"
          },
          {
            "hours": "30м",
            "description": "реализация компонента author-item"
          },
          {
            "hours": "10м",
            "description": "добавил material module в share module"
          },
          {
            "hours": "10м",
            "description": "добавил компонент panel-search"
          },
          {
            "hours": "20м",
            "description": "HTML компонент panel-search"
          },
          {
            "hours": "45м",
            "description": "реализовал panel-search"
          },
          {
            "hours": "30м",
            "description": "реализовал поиск города в заголовке биографии"
          },
          {
            "hours": "30м",
            "description": "добавил 3 строки в списке авторов"
          },
          {
            "hours": "10м",
            "description": "оформил pipe date"
          },
          {
            "hours": "10м",
            "description": "добавил author в autor-info"
          },
          {
            "hours": "60м",
            "description": "interface перевода сделан"
          },
          {
            "hours": "20м",
            "description": "interface перевода BE"
          }
        ]
      },
      {
        "name": "Ульяна Бычковская",
        "activityList": [
          {
            "hours": "3ч",
            "description": "главная страница"
          },
          {
            "hours": "1",
            "description": "сервис для рандомного автора"
          },
          {
            "hours": "2ч",
            "description": "перевод главной страницы"
          },
          {
            "hours": "7ч",
            "description": "дизайн всего портала"
          },
          {
            "hours": "2ч",
            "description": "мобильная версия всего порталаl"
          },
          {
            "hours": "0.5ч",
            "description": "json-файл для главной страницы"
          }
        ]
      },
      {
        "name": "Тимур Ермаков",
        "activityList": [
          {
            "hours": "5ч",
            "description": "добавил компоненты и модели страницы рабочего журнала"
          },
          {
            "hours": "3ч",
            "description": "добавил service страницы журнала и resolver"
          },
          {
            "hours": "2ч",
            "description": "добавил правильные данные"
          },
          {
            "hours": "2ч",
            "description": "перевод данных"
          },
          {
            "hours": "2ч",
            "description": "устранение багов"
          }
        ]
      },
      {
        "name": "Владислав Дрозд",
        "activityList": [
          {
            "hours": "1.5ч",
            "description": "Развернул проект, выстроил структуру проекта, создал начальные модули"
          },
          {
            "hours": "2ч",
            "description": "Страница разработчиков"
          },
          {
            "hours": "1ч",
            "description": "Сервис для страницы разработчиков"
          },
          {
            "hours": "1ч",
            "description": "Объеденил все модули, настроил роутинг"
          },
          {
            "hours": "0.5ч",
            "description": "Настроил перевод странице разработчиков"
          },
          {
            "hours": "0.5ч",
            "description": "Страница со styleguide"
          },
          {
            "hours": "0.5ч",
            "description": "Исправление ошибок линтера"
          },
          {
            "hours": "0.2ч",
            "description": "Другие мелкие доработки"
          }
        ]
      }
    ],
    "mainDifficulties": [
      "Перевод",
      "Конфликты слияния",
      "Проблемы с пулл запросами"
    ],
    "evaluation": [
      {
        "scopeTitle": "Минимальный уровень - 50",
        "requirementsList": [
          {
            "isDone": "true",
            "description": "10 Главная страница + страница со списком авторов + страница автора (только страницы с контентом без виджетов)"
          },
          {
            "isDone": "true",
            "description": "10 Страница с членами команды + страница с рабочим журналом"
          },
          {
            "isDone": "true",
            "description": "10 Страница со списком авторов содержит поисковый виджет"
          },
          {
            "isDone": "true",
            "description": "20 Портал имеет два языка"
          }
        ]
      },
      {
        "scopeTitle": "Нормальный уровень - 140",
        "requirementsList": [
          {
            "isDone": "true",
            "description": "20 На портале есть страница с руководством по стилю"
          },
          {
            "isDone": "true",
            "description": "10 Мобильная версия хорошо выглядит"
          },
          {
            "isDone": "true",
            "description": "10 Версия для iPad / планшета хорошо выглядит"
          },
          {
            "isDone": "true",
            "description": "10 Страница автора содержит временную шкалу"
          },
          {
            "isDone": "true",
            "description": "10 Страница автора содержит видео оверлей"
          },
          {
            "isDone": "true",
            "description": "20 Страница автора содержит фотогалерею"
          },
          {
            "isDone": "true",
            "description": "10 Страница автора содержит карту (geowidget)"
          },
          {
            "isDone": "true",
            "description": "от 0 до 20 Дизайн (типография, значки, цвета, ссылки + кнопки + ввод, стилизованные компоненты пользовательского интерфейса)"
          },
          {
            "isDone": "true",
            "description": "20 Материал-UI / Bootstrap используется"
          },
          {
            "isDone": "true",
            "description": "10 Портал имеет третий язык"
          }
        ]
      },
      {
        "scopeTitle": "Дополнительный уровень - 90",
        "requirementsList": [
          {
            "isDone": "true",
            "description": "10 Уверенность в презентации проекта"
          },
          {
            "isDone": "false",
            "description": "10 Проект сделан с использованием scully"
          },
          {
            "isDone": "false",
            "description": "10 Contentful / Netlify CMS / другие CMS используется для управления контентом"
          },
          {
            "isDone": "true",
            "description": "20 Анимации / спецэффекты, такие как параллакс"
          },
          {
            "isDone": "true",
            "description": "до 20 выдающийся дизайн"
          },
          {
            "isDone": "true",
            "description": "20 Сборник рассказов / угловая игровая площадка / compodoc / другое руководство по угловым стилям / использование инструмента документации для страницы со стилями"
          }
        ]
      }
    ]
  },
  "be": {
    "worklogsTitle": "Рабочыя часопісы распрацоўшчыкаў:",
    "mainDifficultiesTitle": "Асноўныя цяжкасці:",
    "evaluationTitle": "Адзнака:",
    "worklogs": [
      {
        "name": "Уладзiмiр Казак",
        "activityList": [
          {
            "hours": "5ч",
            "description": "дадаў некаторыя дэталі аўтара"
          },
          {
            "hours": "5ч",
            "description": "дадаў відэа і паказаў карту"
          },
          {
            "hours": "3ч",
            "description": "перарабіў модуль аўтараў"
          }
        ]
      },
      {
        "name": "Мікіта Майсейчык",
        "activityList": [
          {
            "hours": "8ч",
            "description": "дадаў дадзеныя JSON аўтараў на рускай мове"
          },
          {
            "hours": "4ч",
            "description": "дадаў дадзеныя JSON аўтараў на англійскай мове"
          },
          {
            "hours": "4ч",
            "description": "дадаў дадзеныя JSON аўтараў на беларускай мове"
          },
          {
            "hours": "2ч",
            "description": "timeline кампанент"
          },
          {
            "hours": "2ч",
            "description": "пошук інфармацыі як ўставіць відэа ў iframe"
          },
          {
            "hours": "2ч",
            "description": "перарабіў кампанент спіс аўтараў і інфармацыя аб аўтары для гнуткай вёрсткі"
          },
          {
            "hours": "3ч",
            "description": "рэфактарынг маршрутызацыі ў спісе аўтараў і кампаненце інфармацыі пра аўтара"
          }
        ]
      },
      {
        "name": "Аляксандр Бабцоў",
        "activityList": [
          {
            "hours": "10х",
            "description": "дадаў маршрутызацыю ў спіс аўтараў "
          },
          {
            "hours": "10х",
            "description": "дадаў service для аўтараў and pipe для пошуку"
          },
          {
            "hours": "45х",
            "description": "Рэалізацыя service Authors"
          },
          {
            "hours": "15х",
            "description": "дадаў кампанент author-item"
          },
          {
            "hours": "10х",
            "description": "кампанент author-item"
          },
          {
            "hours": "30х",
            "description": "рэалізацыя кампанента author-item"
          },
          {
            "hours": "10х",
            "description": "дадаў material module ў share module"
          },
          {
            "hours": "10х",
            "description": "дадаў кампанент panel-search"
          },
          {
            "hours": "20х",
            "description": "HTML кампанент panel-search"
          },
          {
            "hours": "45х",
            "description": "рэалізаваў panel-search"
          },
          {
            "hours": "30х",
            "description": "рэалізаваў пошук горада ў загалоўку біяграфіі"
          },
          {
            "hours": "30х",
            "description": "дадаў 3 радкі ў спісе аўтараў"
          },
          {
            "hours": "10х",
            "description": "аформіў pipe date"
          },
          {
            "hours": "10х",
            "description": "дадаў author ў autor-info"
          },
          {
            "hours": "60х",
            "description": "interface перакладу зроблены"
          },
          {
            "hours": "20х",
            "description": "interface перакладу BE"
          }
        ]
      },
      {
        "name": "Ульяна Бычкоўская",
        "activityList": [
          {
            "hours": "3ч",
            "description": "Галоўная старонка"
          },
          {
            "hours": "1",
            "description": "сэрвіс для рандомные аўтара"
          },
          {
            "hours": "2ч",
            "description": "пераклад галоўнай старонкі"
          },
          {
            "hours": "7ч",
            "description": "дызайн усяго партала"
          },
          {
            "hours": "2ч",
            "description": "мабільная версія усяго портала"
          },
          {
            "hours": "0.5ч",
            "description": "json-файл для галоўнай старонкі"
          }
        ]
      },
      {
        "name": "Цімур Ермакоў",
        "activityList": [
          {
            "hours": "5ч",
            "description": "дадаў кампаненты і мадэлі старонкі рабочага часопіса"
          },
          {
            "hours": "3ч",
            "description": "дадаў service старонкі часопіса і resolver"
          },
          {
            "hours": "2ч",
            "description": "дадаў правільныя дадзеныя"
          },
          {
            "hours": "2ч",
            "description": "пераклад дадзеных"
          },
          {
            "hours": "2ч",
            "description": "ліквідацыю багаў"
          }
        ]
      },
      {
        "name": "Уладзіслаў Дрозд",
        "activityList": [
          {
            "hours": "1.5ч",
            "description": "Разгарнуў праект, пабудаваў структуру праекта, стварыў пачатковыя модулі"
          },
          {
            "hours": "2ч",
            "description": "Старонка распрацоўшчыкаў"
          },
          {
            "hours": "1ч",
            "description": "Сэрвіс для старонкі распрацоўшчыкаў"
          },
          {
            "hours": "1ч",
            "description": "Аб'ядналі ўсе модулі, наладзіў роўтынг"
          },
          {
            "hours": "0.5ч",
            "description": "Наладзіў пераклад старонцы распрацоўшчыкаў"
          },
          {
            "hours": "0.5ч",
            "description": "Старонка са styleguide"
          },
          {
            "hours": "0.5ч",
            "description": "Выпраўленне памылак лінтэра"
          },
          {
            "hours": "0.2ч",
            "description": "Іншыя дробныя дапрацоўкі"
          }
        ]
      }
    ],
    "mainDifficulties": [
      "Пераклад",
      "Канфлікты зліцця",
      "Праблемы з пулл запытамі"
    ],
    "evaluation": [
      {
        "scopeTitle": "Мінімальны ўзровень - 50",
        "requirementsList": [
          {
            "isDone": "true",
            "description": "10 Галоўная старонка + старонка са спісам аўтараў + старонка аўтара (толькі старонкі з кантэнтам без віджэтаў)"
          },
          {
            "isDone": "true",
            "description": "10 Старонка з членамі каманды + старонка з рабочым часопісам"
          },
          {
            "isDone": "true",
            "description": "10 Старонка са спісам аўтараў змяшчае пошукавы віджэт"
          },
          {
            "isDone": "true",
            "description": "20 Партал мае дзве мовы"
          }
        ]
      },
      {
        "scopeTitle": "нармальны ўзровень - 140",
        "requirementsList": [
          {
            "isDone": "true",
            "description": "20 На партале ёсць старонка з кіраўніцтвам па стылі"
          },
          {
            "isDone": "true",
            "description": "10 Мабільная версія добра выглядае"
          },
          {
            "isDone": "true",
            "description": "10 Версія для iPad / планшэта добра выглядае"
          },
          {
            "isDone": "true",
            "description": "10 Старонка аўтара змяшчае часовую шкалу"
          },
          {
            "isDone": "true",
            "description": "10 Старонка аўтара утрымлівае відэа оверлэй"
          },
          {
            "isDone": "true",
            "description": "20 Старонка аўтара змяшчае фотагалерэю"
          },
          {
            "isDone": "true",
            "description": "10 Старонка аўтара змяшчае карту (geowidget)"
          },
          {
            "isDone": "true",
            "description": "ад 0 да 20 Дызайн (друкарня, значкі, колеру, спасылкі + кнопкі + ўвод, стылізаваныя кампаненты карыстацкага інтэрфейсу)"
          },
          {
            "isDone": "true",
            "description": "20 Матэрыял-UI / Bootstrap выкарыстоўваецца"
          },
          {
            "isDone": "true",
            "description": "10 Партал мае трэццю мову"
          }
        ]
      },
      {
        "scopeTitle": "Дадатковы ўзровень - 90",
        "requirementsList": [
          {
            "isDone": "true",
            "description": "10 Упэўненасць у прэзентацыі праекта"
          },
          {
            "isDone": "false",
            "description": "10 Праект зроблены з выкарыстаннем scully"
          },
          {
            "isDone": "false",
            "description": "10 Contentful / Netlify CMS / іншыя CMS выкарыстоўваецца для кіравання кантэнтам"
          },
          {
            "isDone": "true",
            "description": "20 Анімацыі / спецэфекты, такія як паралакс"
          },
          {
            "isDone": "true",
            "description": "да 20 выбітны дызайн "
          },
          {
            "isDone": "true",
            "description": "20 Зборнік апавяданняў / кутняя гульнявая пляцоўка / compodoc / іншае кіраўніцтва па кутніх стылях / выкарыстанне інструмента дакументацыі для старонкі са стылямі"
          }
        ]
      }
    ]
  }
}
